[
  {"id":"P001","name":"Ali Electric Works","service_type":"electrician","location":"Block 13, Gulshan-e-Iqbal","area":"Gulshan","lat":24.927,"lng":67.094,"rating":4.8,"review_count":142,"on_time_score":94,"cancellation_rate":3,"price_per_hour":800,"availability":["morning","afternoon","evening"],"specialization":"AC wiring, industrial panels","experience_years":12,"job_complexity":["basic","intermediate","complex"],"verified":true,"risk_score":0.05},
  {"id":"P002","name":"Usman Electrician Services","service_type":"electrician","location":"Phase 6, DHA","area":"DHA","lat":24.8075,"lng":67.06,"rating":4.5,"review_count":98,"on_time_score":88,"cancellation_rate":5,"price_per_hour":1000,"availability":["morning","afternoon"],"specialization":"home wiring, switches","experience_years":8,"job_complexity":["basic","intermediate"],"verified":true,"risk_score":0.1},
  {"id":"P003","name":"Tariq Bijli Wala","service_type":"electrician","location":"Block D, North Nazimabad","area":"North Nazimabad","lat":24.943,"lng":67.0345,"rating":4.2,"review_count":67,"on_time_score":82,"cancellation_rate":8,"price_per_hour":600,"availability":["morning","afternoon","evening","night"],"specialization":"UPS installation, generators","experience_years":15,"job_complexity":["basic","intermediate","complex"],"verified":true,"risk_score":0.12},
  {"id":"P004","name":"Nadeem Electric Solutions","service_type":"electrician","location":"Block 14, F.B Area","area":"F.B Area","lat":24.9205,"lng":67.0605,"rating":4.0,"review_count":45,"on_time_score":78,"cancellation_rate":10,"price_per_hour":550,"availability":["morning","evening"],"specialization":"ceiling fans, light fixtures","experience_years":6,"job_complexity":["basic"],"verified":false,"risk_score":0.2},
  {"id":"P005","name":"Kamran Power Tech","service_type":"electrician","location":"Clifton Block 5","area":"Clifton","lat":24.814,"lng":67.0305,"rating":4.7,"review_count":120,"on_time_score":91,"cancellation_rate":4,"price_per_hour":1200,"availability":["morning","afternoon","evening"],"specialization":"smart home wiring, automation","experience_years":10,"job_complexity":["intermediate","complex"],"verified":true,"risk_score":0.06},
  {"id":"P006","name":"Bilal Light House","service_type":"electrician","location":"Sector 48, Korangi","area":"Korangi","lat":24.831,"lng":67.131,"rating":3.9,"review_count":33,"on_time_score":75,"cancellation_rate":12,"price_per_hour":500,"availability":["morning","afternoon"],"specialization":"basic wiring, meter installation","experience_years":4,"job_complexity":["basic"],"verified":false,"risk_score":0.25},
  {"id":"P007","name":"Shahzad Electrical","service_type":"electrician","location":"Nazimabad No.3","area":"Nazimabad","lat":24.913,"lng":67.0345,"rating":4.3,"review_count":78,"on_time_score":86,"cancellation_rate":6,"price_per_hour":700,"availability":["morning","afternoon","evening"],"specialization":"inverter installation, solar panels","experience_years":9,"job_complexity":["basic","intermediate","complex"],"verified":true,"risk_score":0.08},
  {"id":"P008","name":"Rehan Electric Co.","service_type":"electrician","location":"Precinct 10, Bahria Town","area":"Bahria Town","lat":24.9605,"lng":67.3205,"rating":4.6,"review_count":55,"on_time_score":90,"cancellation_rate":3,"price_per_hour":900,"availability":["morning","afternoon","evening"],"specialization":"complete house wiring, breaker panels","experience_years":11,"job_complexity":["basic","intermediate","complex"],"verified":true,"risk_score":0.07},
  {"id":"P009","name":"Asif Plumber Master","service_type":"plumber","location":"Block 10, Gulshan-e-Iqbal","area":"Gulshan","lat":24.9255,"lng":67.0925,"rating":4.6,"review_count":110,"on_time_score":90,"cancellation_rate":5,"price_per_hour":700,"availability":["morning","afternoon","evening"],"specialization":"pipe fitting, leakage repair","experience_years":14,"job_complexity":["basic","intermediate","complex"],"verified":true,"risk_score":0.06},
  {"id":"P010","name":"Zahid Plumbing Works","service_type":"plumber","location":"Phase 4, DHA","area":"DHA","lat":24.8068,"lng":67.059,"rating":4.3,"review_count":85,"on_time_score":85,"cancellation_rate":7,"price_per_hour":900,"availability":["morning","afternoon"],"specialization":"bathroom renovation, water heater","experience_years":10,"job_complexity":["basic","intermediate","complex"],"verified":true,"risk_score":0.09},
  {"id":"P011","name":"Faisal Nalkay Wala","service_type":"plumber","location":"Saddar Cooperative Market","area":"Saddar","lat":24.856,"lng":67.0285,"rating":3.8,"review_count":42,"on_time_score":72,"cancellation_rate":15,"price_per_hour":500,"availability":["morning","afternoon","evening","night"],"specialization":"drain cleaning, tap repair","experience_years":7,"job_complexity":["basic"],"verified":false,"risk_score":0.22},
  {"id":"P012","name":"Waqar Pipeline Services","service_type":"plumber","location":"Block C, North Nazimabad","area":"North Nazimabad","lat":24.942,"lng":67.0335,"rating":4.1,"review_count":63,"on_time_score":80,"cancellation_rate":9,"price_per_hour":650,"availability":["morning","afternoon","evening"],"specialization":"water tank, motor pump","experience_years":8,"job_complexity":["basic","intermediate"],"verified":true,"risk_score":0.14},
  {"id":"P013","name":"Hamza Sanitary Solutions","service_type":"plumber","location":"Malir Cantt Area","area":"Malir","lat":24.8905,"lng":67.2005,"rating":4.4,"review_count":71,"on_time_score":87,"cancellation_rate":6,"price_per_hour":750,"availability":["morning","afternoon"],"specialization":"sewerage lines, complete plumbing","experience_years":13,"job_complexity":["basic","intermediate","complex"],"verified":true,"risk_score":0.08},
  {"id":"P014","name":"Irfan Pipe Fitter","service_type":"plumber","location":"Block 18, F.B Area","area":"F.B Area","lat":24.921,"lng":67.061,"rating":4.0,"review_count":38,"on_time_score":76,"cancellation_rate":11,"price_per_hour":550,"availability":["morning","evening"],"specialization":"kitchen plumbing, water filters","experience_years":5,"job_complexity":["basic","intermediate"],"verified":false,"risk_score":0.18},
  {"id":"P015","name":"Kashif Plumbing Pro","service_type":"plumber","location":"Clifton Block 9","area":"Clifton","lat":24.8145,"lng":67.031,"rating":4.5,"review_count":92,"on_time_score":89,"cancellation_rate":4,"price_per_hour":850,"availability":["morning","afternoon","evening"],"specialization":"geyser installation, hot water lines","experience_years":11,"job_complexity":["basic","intermediate","complex"],"verified":true,"risk_score":0.07},
  {"id":"P016","name":"Sajid AC Expert","service_type":"AC technician","location":"Block 7, Gulshan-e-Iqbal","area":"Gulshan","lat":24.9268,"lng":67.093,"rating":4.7,"review_count":135,"on_time_score":92,"cancellation_rate":3,"price_per_hour":1000,"availability":["morning","afternoon","evening"],"specialization":"split AC, inverter AC repair","experience_years":12,"job_complexity":["basic","intermediate","complex"],"verified":true,"risk_score":0.04},
  {"id":"P017","name":"Danish Cooling Services","service_type":"AC technician","location":"Phase 7, DHA","area":"DHA","lat":24.808,"lng":67.061,"rating":4.4,"review_count":88,"on_time_score":86,"cancellation_rate":6,"price_per_hour":1200,"availability":["morning","afternoon"],"specialization":"central AC, VRF systems","experience_years":15,"job_complexity":["intermediate","complex"],"verified":true,"risk_score":0.08},
  {"id":"P018","name":"Farhan AC Mechanic","service_type":"AC technician","location":"Nazimabad No.6","area":"Nazimabad","lat":24.9135,"lng":67.035,"rating":4.1,"review_count":52,"on_time_score":79,"cancellation_rate":9,"price_per_hour":700,"availability":["morning","afternoon","evening","night"],"specialization":"window AC, gas refill","experience_years":7,"job_complexity":["basic","intermediate"],"verified":true,"risk_score":0.15},
  {"id":"P019","name":"Owais Cool Tech","service_type":"AC technician","location":"Precinct 15, Bahria Town","area":"Bahria Town","lat":24.961,"lng":67.321,"rating":4.5,"review_count":65,"on_time_score":88,"cancellation_rate":5,"price_per_hour":950,"availability":["morning","afternoon","evening"],"specialization":"ductless systems, AC installation","experience_years":9,"job_complexity":["basic","intermediate","complex"],"verified":true,"risk_score":0.09},
  {"id":"P020","name":"Junaid Thanda Karo","service_type":"AC technician","location":"Sector 31, Korangi","area":"Korangi","lat":24.8315,"lng":67.1315,"rating":3.7,"review_count":28,"on_time_score":70,"cancellation_rate":14,"price_per_hour":600,"availability":["morning","afternoon"],"specialization":"basic AC service, cleaning","experience_years":3,"job_complexity":["basic"],"verified":false,"risk_score":0.28},
  {"id":"P021","name":"Nabeel AC Pro","service_type":"AC technician","location":"Malir Extension","area":"Malir","lat":24.891,"lng":67.201,"rating":4.2,"review_count":47,"on_time_score":83,"cancellation_rate":7,"price_per_hour":800,"availability":["morning","afternoon","evening"],"specialization":"compressor repair, thermostat","experience_years":8,"job_complexity":["basic","intermediate"],"verified":true,"risk_score":0.11},
  {"id":"P022","name":"Sir Imran Academy","service_type":"tutor","location":"Block 5, Gulshan-e-Iqbal","area":"Gulshan","lat":24.926,"lng":67.0932,"rating":4.9,"review_count":200,"on_time_score":96,"cancellation_rate":2,"price_per_hour":1500,"availability":["morning","afternoon","evening"],"specialization":"O/A Levels, math & physics","experience_years":18,"job_complexity":["basic","intermediate","complex"],"verified":true,"risk_score":0.02},
  {"id":"P023","name":"Miss Sana Home Tuition","service_type":"tutor","location":"Phase 5, DHA","area":"DHA","lat":24.8073,"lng":67.0595,"rating":4.6,"review_count":130,"on_time_score":93,"cancellation_rate":3,"price_per_hour":1800,"availability":["afternoon","evening"],"specialization":"English language, IELTS prep","experience_years":10,"job_complexity":["basic","intermediate"],"verified":true,"risk_score":0.04},
  {"id":"P024","name":"Hafiz Qari Sahab","service_type":"tutor","location":"North Nazimabad Block A","area":"North Nazimabad","lat":24.9428,"lng":67.0342,"rating":4.8,"review_count":175,"on_time_score":95,"cancellation_rate":1,"price_per_hour":600,"availability":["morning","afternoon","evening","night"],"specialization":"Quran, Islamiat, Urdu","experience_years":20,"job_complexity":["basic","intermediate"],"verified":true,"risk_score":0.02},
  {"id":"P025","name":"Ahmed Computer Classes","service_type":"tutor","location":"Saddar Bolton Market","area":"Saddar","lat":24.8558,"lng":67.0282,"rating":4.0,"review_count":40,"on_time_score":78,"cancellation_rate":10,"price_per_hour":800,"availability":["morning","afternoon"],"specialization":"MS Office, basic programming","experience_years":5,"job_complexity":["basic"],"verified":false,"risk_score":0.16},
  {"id":"P026","name":"Miss Ayesha Science Hub","service_type":"tutor","location":"Clifton Block 2","area":"Clifton","lat":24.8142,"lng":67.0308,"rating":4.7,"review_count":95,"on_time_score":91,"cancellation_rate":4,"price_per_hour":2000,"availability":["afternoon","evening"],"specialization":"medical entry test, biology","experience_years":12,"job_complexity":["intermediate","complex"],"verified":true,"risk_score":0.05},
  {"id":"P027","name":"Rubina Beauty Parlour","service_type":"beautician","location":"Block 13A, Gulshan-e-Iqbal","area":"Gulshan","lat":24.9275,"lng":67.0945,"rating":4.5,"review_count":160,"on_time_score":88,"cancellation_rate":5,"price_per_hour":1500,"availability":["morning","afternoon","evening"],"specialization":"bridal makeup, facial","experience_years":14,"job_complexity":["basic","intermediate","complex"],"verified":true,"risk_score":0.06},
  {"id":"P028","name":"Farah Glow Studio","service_type":"beautician","location":"Phase 6, DHA","area":"DHA","lat":24.8078,"lng":67.0602,"rating":4.8,"review_count":210,"on_time_score":94,"cancellation_rate":2,"price_per_hour":2500,"availability":["morning","afternoon","evening"],"specialization":"hair styling, skin treatment","experience_years":16,"job_complexity":["basic","intermediate","complex"],"verified":true,"risk_score":0.03},
  {"id":"P029","name":"Nida Home Salon","service_type":"beautician","location":"North Nazimabad Block H","area":"North Nazimabad","lat":24.9426,"lng":67.0338,"rating":4.2,"review_count":72,"on_time_score":82,"cancellation_rate":8,"price_per_hour":1000,"availability":["morning","afternoon"],"specialization":"threading, waxing, mehndi","experience_years":6,"job_complexity":["basic","intermediate"],"verified":true,"risk_score":0.12},
  {"id":"P030","name":"Sadia Makeover Artist","service_type":"beautician","location":"Clifton Block 8","area":"Clifton","lat":24.8148,"lng":67.0315,"rating":4.6,"review_count":115,"on_time_score":90,"cancellation_rate":4,"price_per_hour":2000,"availability":["afternoon","evening"],"specialization":"party makeup, nail art","experience_years":9,"job_complexity":["basic","intermediate","complex"],"verified":true,"risk_score":0.05}
]
